{
"type": "FeatureCollection",
"name": "Provincial Capitals",
"crs": { "type": "name", "properties": { "name": "urn:ogc:def:crs:OGC:1.3:CRS84" } },
"features": [
{ "type": "Feature", "properties": { "OBJECTID": 1, "ID": 4434.0, "SETT_": 0.0, "SETT_ID": 0.0, "HUTS": 0, "HOUSES": 0, "NAME": "BORAMA", "PCODE": "110104200", "CODE": 100, "REG_CODE": 11, "REGION": "Awdal", "DISTRICT": "Borama", "SOURCE": "Survey", "PPRWARES": 0, "PPRWANRS": 0, "TOP_POP": 0, "SUR_POP": 30004, "PARTS": 1.0, "X_COORD": 43.18335, "Y_COORD": 9.92893 }, "geometry": { "type": "Point", "coordinates": [ 43.18335, 9.92893 ] } },
{ "type": "Feature", "properties": { "OBJECTID": 2, "ID": 2768.0, "SETT_": 2769.0, "SETT_ID": 2769.0, "HUTS": 0, "HOUSES": 0, "NAME": "CEERIGAABO", "PCODE": "150103200", "CODE": 100, "REG_CODE": 15, "REGION": "Sanaag", "DISTRICT": "Ceerigaabo", "SOURCE": "Topomaps", "PPRWARES": 0, "PPRWANRS": 0, "TOP_POP": 0, "SUR_POP": 0, "PARTS": 1.0, "X_COORD": 47.36847, "Y_COORD": 10.62035 }, "geometry": { "type": "Point", "coordinates": [ 47.36847, 10.62035 ] } },
{ "type": "Feature", "properties": { "OBJECTID": 3, "ID": 2411.0, "SETT_": 2412.0, "SETT_ID": 2412.0, "HUTS": 0, "HOUSES": 0, "NAME": "LAAS CAANOOD", "PCODE": "140103200", "CODE": 100, "REG_CODE": 14, "REGION": "Sool", "DISTRICT": "Laas Caanood", "SOURCE": "Topomaps", "PPRWARES": 0, "PPRWANRS": 0, "TOP_POP": 0, "SUR_POP": 0, "PARTS": 1.0, "X_COORD": 47.35613, "Y_COORD": 8.47645 }, "geometry": { "type": "Point", "coordinates": [ 47.35613, 8.476450000000114 ] } },
{ "type": "Feature", "properties": { "OBJECTID": 4, "ID": 2533.0, "SETT_": 2534.0, "SETT_ID": 2534.0, "HUTS": 0, "HOUSES": 0, "NAME": "BURCO", "PCODE": "130103200", "CODE": 100, "REG_CODE": 13, "REGION": "Togdheer", "DISTRICT": "Burco", "SOURCE": "Topomaps", "PPRWARES": 0, "PPRWANRS": 0, "TOP_POP": 0, "SUR_POP": 0, "PARTS": 1.0, "X_COORD": 45.53747, "Y_COORD": 9.52749 }, "geometry": { "type": "Point", "coordinates": [ 45.53747, 9.52749 ] } },
{ "type": "Feature", "properties": { "OBJECTID": 5, "ID": 2795.0, "SETT_": 2796.0, "SETT_ID": 2796.0, "HUTS": 0, "HOUSES": 0, "NAME": "BERBERA", "PCODE": "120203300", "CODE": 10, "REG_CODE": 12, "REGION": "Sahil", "DISTRICT": "Berbera", "SOURCE": "Topomaps", "PPRWARES": 0, "PPRWANRS": 0, "TOP_POP": 0, "SUR_POP": 32137, "PARTS": 1.0, "X_COORD": 45.0114, "Y_COORD": 10.43872 }, "geometry": { "type": "Point", "coordinates": [ 45.0114, 10.43872 ] } }
]
}
